[{"bounds": {"northeast": {"lat": 43.8548715, "lng": -79.325515}, "southwest": {"lat": 43.643303, "lng": -79.53657}}, "copyrights": "Map data \u00a92018 Google", "legs": [{"arrival_time": {"text": "7:57am", "time_zone": "America/Toronto", "value": 1518958623}, "departure_time": {"text": "5:58am", "time_zone": "America/Toronto", "value": 1518951525}, "distance": {"text": "54.2 km", "value": 54205}, "duration": {"text": "1 hour 58 mins", "value": 7098}, "end_address": "27 King's College Cir, Toronto, ON M5S, Canada", "end_location": {"lat": 43.6591603, "lng": -79.394097}, "start_address": "1 Canada's Wonderland Drive, Vaughan, ON L6A 1S6, Canada", "start_location": {"lat": 43.8385209, "lng": -79.5343381}, "steps": [{"distance": {"text": "1.4 km", "value": 1396}, "duration": {"text": "18 mins", "value": 1072}, "end_location": {"lat": 43.850013, "lng": -79.53467599999999}, "html_instructions": "Walk to Major Mackenzie Dr Stop # 2934", "polyline": {"points": "weqjGr`mdNYCmANmBX}C^iC^eCXa@DmAPqANq@H{ATgCZc@FWDkDh@oANg@Ai@DqC\\kBTw@JI@g@RWBkARqAPm@A}AN]eBg@eCm@gCHE"}, "start_location": {"lat": 43.8385209, "lng": -79.5343381}, "steps": [{"distance": {"text": "1.2 km", "value": 1233}, "duration": {"text": "16 mins", "value": 948}, "end_location": {"lat": 43.8494794, "lng": -79.53657}, "html_instructions": "Head <b>north</b> on <b>Jane St</b>/<b>York Regional Rd 55</b>", "polyline": {"points": "weqjGr`mdNYCmANmBX}C^iC^eCXa@DmAPqANq@H{ATgCZc@FWDkDh@oANg@Ai@DqC\\kBTw@JI@g@RWBkARqAPm@A}AN"}, "start_location": {"lat": 43.8385209, "lng": -79.5343381}, "travel_mode": "WALKING"}, {"distance": {"text": "0.2 km", "value": 163}, "duration": {"text": "2 mins", "value": 124}, "end_location": {"lat": 43.850013, "lng": -79.53467599999999}, "html_instructions": "Turn <b>right</b> onto <b>Major MacKenzie Dr W</b>/<b>York Regional Rd 25</b><div style=\"font-size:0.9em\">Destination will be on the right</div>", "maneuver": "turn-right", "polyline": {"points": "gjsjGpnmdN]eBg@eCm@gCHE"}, "start_location": {"lat": 43.8494794, "lng": -79.53657}, "travel_mode": "WALKING"}], "travel_mode": "WALKING"}, {"distance": {"text": "2.0 km", "value": 1975}, "duration": {"text": "4 mins", "value": 226}, "end_location": {"lat": 43.854715, "lng": -79.512653}, "html_instructions": "Bus towards RT 4A Major Mackenzie to Woodbine", "polyline": {"points": "qmsjGvbmdNZ|CEQw@mDs@_D]_BGWOaAUuAKw@s@kGk@aFq@{F]yCMaAGc@}@qHiCgTUgBSaBIw@Io@[kCSiBO}@e@eEGe@_AaISeBe@qDa@mDOaAIk@O_D"}, "start_location": {"lat": 43.850013, "lng": -79.53467599999999}, "transit_details": {"arrival_stop": {"location": {"lat": 43.854715, "lng": -79.512653}, "name": "Major Mackenzie Dr / Keele St"}, "arrival_time": {"text": "6:20am", "time_zone": "America/Toronto", "value": 1518952846}, "departure_stop": {"location": {"lat": 43.850013, "lng": -79.53467599999999}, "name": "Major Mackenzie Dr Stop # 2934"}, "departure_time": {"text": "6:17am", "time_zone": "America/Toronto", "value": 1518952620}, "headsign": "RT 4A Major Mackenzie to Woodbine", "line": {"agencies": [{"name": "York Region Transit", "phone": "1 (877) 464-9675", "url": "http://www.yrt.ca/"}], "color": "#01579b", "name": "Major Mackenzie", "short_name": "004A", "text_color": "#ffffff", "vehicle": {"icon": "//maps.gstatic.com/mapfiles/transit/iw2/6/bus2.png", "name": "Bus", "type": "BUS"}}, "num_stops": 5}, "travel_mode": "TRANSIT"}, {"distance": {"text": "0.3 km", "value": 258}, "duration": {"text": "3 mins", "value": 190}, "end_location": {"lat": 43.852815, "lng": -79.51200999999999}, "html_instructions": "Walk to Keele St Stop # 3964", "polyline": {"points": "_ktjG`yhdNOFMcAfAO|@IbAMv@MhAOh@I`@G@R"}, "start_location": {"lat": 43.854715, "lng": -79.512653}, "steps": [{"distance": {"text": "28 m", "value": 28}, "duration": {"text": "1 min", "value": 21}, "end_location": {"lat": 43.8548715, "lng": -79.51235489999999}, "html_instructions": "Head <b>east</b> on <b>Major MacKenzie Dr W</b>/<b>York Regional Rd 25</b> toward <b>Keele St</b>/<b>York Regional Rd 6</b>", "polyline": {"points": "_ktjG`yhdNOFMcA"}, "start_location": {"lat": 43.854715, "lng": -79.512653}, "travel_mode": "WALKING"}, {"distance": {"text": "0.2 km", "value": 230}, "duration": {"text": "3 mins", "value": 169}, "end_location": {"lat": 43.852815, "lng": -79.51200999999999}, "html_instructions": "Turn <b>right</b> onto <b>Keele St</b>/<b>York Regional Rd 6</b> (signs for <b>Regional Road 6</b>)<div style=\"font-size:0.9em\">Destination will be on the right</div>", "maneuver": "turn-right", "polyline": {"points": "}ktjGdwhdNfAO|@IbAMv@MhAOh@I`@G@R"}, "start_location": {"lat": 43.8548715, "lng": -79.51235489999999}, "travel_mode": "WALKING"}], "travel_mode": "WALKING"}, {"distance": {"text": "48.0 km", "value": 48017}, "duration": {"text": "45 mins", "value": 2700}, "end_location": {"lat": 43.6456261, "lng": -79.37839509999999}, "html_instructions": "Bus towards 63 - Union Station", "polyline": {"points": "c_tjG`uhdNA?AULCv@KfDe@lBYj@Gt@K`@EjEm@pBY~Fy@~Fw@lCc@z@KvB[d@Id@IfBYn@K|@MVCzAURH|@MhC_@lAQj@K@AJOTEpAUhB[dAQb@IrBY|ASbAONChB]NH@?z@MrASJAHAAUO}@CWU}AIk@Gq@ACIi@Km@I_@UeAKe@Oo@Mm@GQQw@Oe@IYW{@Yq@_AgCYu@CEi@_BO_@a@}A[wAIa@SaAGWd@UNKBEDI@}EDCEB?m@AICIEEGEK@ILANh@jGEHCDOJe@TMFEBJl@DXH^DPRz@Nj@J\\b@tAVt@`AhCj@~AN\\Rn@Tr@\\nADLLd@Jb@TdAFXNt@Jn@PhAF^Z~BVnB@H@HJAHAr@KhAO|@M|ASx@KtASlASrAQz@MJOr@Mz@KNCh@GzHaAPH\\Av@GnAORSdAOhDc@zAQv@Kj@Iv@IrAQ|B[d@ITCn@KJC~@QlEu@lF_AtCi@`Cc@hFw@j@IbBSh@IXEZENFB@DAfBW~AWDALQXGl@MvB[vCe@bBUz@Mp@KlAQx@MnBYTEvIwAj@KhB[ZEh@I|Cg@tDk@t@MnASfASFAr@Kb@G\\GxAWZEhF}@tMqB|@MrASRC`@IvCc@rB[XEbAQjAU`@GfAOd@I|B]r@Mf@IlDi@`Fy@ZLPCrAUr@Mp@K\\EjAS|@QlB[hCc@xASr@MNC`AQNCv@K~@@R@RBPFLHJJHLFPDPBR@R?P?RCREPGNILKJKHMDMBO?MAOEMEMMIOIQGUKa@g@gCCGCQ_@{Bu@yBe@gCq@eDm@iCm@}Bc@{AwA{EyA_Ey@yBg@qAcBwDeAkB]q@Q_@_@s@]i@Yi@U]g@y@w@oA_@k@_AqAoAaBm@u@e@i@a@c@oAsA[]_ByAa@]_BoA}AiA_Ao@y@g@g@Y}A{@_Ae@wAq@e@QeA_@g@SyAe@mA]wA_@{@QUEc@KsASWEq@Ig@GiAMiAIq@Ee@CaCIaDI}DMuAEgBEyFQqAEiAIc@G_@EaAM_AQ_ASeAYaA[cA_@aAa@o@Ui@Ym@]w@e@cBkAiA_AiC}BuA{Aq@y@q@w@}@gAe@m@y@kA}@sAq@iAaAaB_AgB_@{@a@_A}AwDo@}AeAoC}@}BaByEg@{As@aC}@{CqA}EkAwE{@sD_@iBi@iCi@eCSmAk@}Ci@}DU_BUiBUeBq@yFWwBa@kDQcBYeCE_@[qCw@uGg@mD]gCw@kFwAeJc@uCO}@i@qDi@kDwCiRWcB_@aCqBiMqBgMo@yD]kBa@{Bs@qDeAqEi@oB]kA_BmFw@aCAGGUGQOc@a@mA]iAg@_BK[IWGSMa@Sm@Us@]cASo@Ui@K[o@oBSq@k@mBISUu@Oe@Uy@o@yBU}@Qs@_@_B[uAc@}Bq@wDKo@M}@S{AGa@Ge@Gk@Eg@K{@Ei@KsASwCIuAKoBKkAEw@?UCeHAw@?qFJoDBg@DaAD}@FiAJeBZeFPiDB_@Fo@Ba@NgBPgCHkAHiBFaAHkAHcBNqCJgBDu@@OLyBP}CZcFZ}ETqETmGRoHHyDBwBBsB@uBB}D?iA@YAiDCgGCgDC{BEiBMoEBaB?q@CuAGwCGuBIkCGuAAI?SCWAg@Q_EA_@MiCW_EIsA]mE[gECaAEm@Ce@EoAEgAAe@A_@AiA?[@y@@{@BY@a@Fq@Fm@Da@BWF_@Lw@T_AFWHWFWRi@JUTg@FOXg@Xe@Zc@Xa@NOX[PQTSLKNK\\UPMVOXOx@a@z@e@hCcAXQv@a@bK_DlAa@f@QdEsA`@MlCy@nBm@hC}@jBo@lC_A~DqAdIcCzC_AbA[tAa@z@Y`HwBfDiA|CgAvBs@j@Sf@Ut@_@f@U`@Wf@[f@]j@e@p@k@j@i@b@_@LOlBgCd@q@`AcBZk@^u@FOTg@`@cAXs@Z{@Vy@zDsMFSH]Na@d@uA|AyEd@eBNa@Rm@Tk@Pe@Te@R_@n@iAZa@NQhAmA\\]d@_@jAw@^Sj@W^QXKn@Qh@KdAQ`@IlBYfC[HAVCbCYfBSpFw@hIgAhC[jC_@vG{@fC]`BWrAO`@Ep@KpHeAvDg@d@Ih@I|@KbAMZGfNgB`AMtEm@jAOpG}@nIgAzB[fNkBlAStCc@zBYjDg@nDe@jBUfD_@bAIhCSbKs@t@GrBUp@IjCYrFs@~AUlAQNAtAO~@In@CXAvBC`GCd@AxAClAEVCNAl@G\\Gh@G`@Gr@OTEd@MXKp@U\\Kj@UPIVGXKtAa@~@YnBi@~@YtA_@h@M^Kj@KrB]b@InFy@dFw@b@GjBYrB[d@GHCXEVEz@QbASlAWdAYl@OpCu@pAa@zCs@t@ObAUp@MlCc@z@Mj@IhBUvAMzAMhCOnLa@fCMz@EvAOpAMxB[HAbCa@fGeA|B]XCnAOVAf@EhAE~@ARArAAVApA@pA?`C?v@@bA@~A?pA?p@AjAEb@Cb@EVCPAf@EfBSnAO|G}@rB[rC_@~ASpDa@pEc@rAK|AMfAGdAGn@CzAC|HMjCEbAAvACnDIt@Ej@Cv@Ep@GHAJA`@Ex@OpAWt@S`AUbA[f@Ov@Yx@[`CkA|A{@f@[TONKnByA~AkA|AkAVSbAu@`BmA`BiAp@]VM\\OZK`@MNEVGXEl@GPAp@Cb@?^?^B\\Bh@Fh@Jl@Nr@VVJ\\RZN`@XVPd@`@\\ZZ\\p@x@j@x@X`@l@|@v@jAb@p@tB~CNTv@jA`@j@`@f@^b@TVRRVRXV^Vl@^j@VLFRFLDx@Tr@Jd@Fz@Hl@JRBh@HrC\\nAPl@H`ANv@R\\JXHf@R\\RJFVPd@ZRPTP`@b@`@d@JNHJFJf@z@FJZl@HNHPBJJTNb@N`@^pAJ^V~@|@~Cr@`CL\\Zt@\\x@NVXd@PXRZb@p@lAfB~AxBj@|@Xf@Xj@Th@Rf@J\\Nd@Ld@H^J`@FXF`@BNBNDXJ~@Fp@@^Bp@@l@@p@Al@Af@GfBEh@C`@Eb@SpBSrBKhAQrBIhAGbAEfAAf@Aj@AdA@`@@`@@R@NBf@NfBHh@DXJn@Jd@Ll@X`A^bANb@R^Zl@`@r@\\f@h@t@rAdBxBhC|@dA|ApBhD`ExBtCf@j@`AlAd@j@d@h@~@|@h@f@ZZXV`@ZRPz@j@\\RlAr@t@\\^PZLZLr@TrA`@dATZFz@Nd@FXD`AFp@B\\@rBDx@?jAB^Bp@Fd@FRBh@JTFXH\\JVHLDJFvCfAnBv@x@XHB~@ZZHPDt@Lb@DN@V@P@\\?~@?b@CdBIrBKn@ElAGpDUlAMx@IbBWdCg@hBa@d@K^IfAUf@MfBm@b@O`Ac@f@YrAy@b@W\\Yb@[hC}BrCiCrAmAd@_@x@o@\\STOTMn@]\\Mv@Yf@Ql@OZIpHyAdB]xL_C~Be@~EcArEcAh@IbAOhCi@bAUtB_@d@If@K^Kh@Ol@Uf@SXMh@WRMl@_@PORMb@_@l@k@d@g@h@o@NORYx@cAr@{@jAuAlAuAlB_Ch@o@rAqA`@_@t@m@PMr@c@NGLIl@WVINENEXC\\E\\A\\?^?P@\\B`@HRFXJRFTJNHRLRNNLd@`@NRX^X`@P\\LTJTNb@Tr@NZRl@Vt@T`ALf@Hh@Jn@Fd@Fv@Bn@Bx@?z@?f@A`ACt@QxEEpBA\\?`@?\\@r@@\\B^Bf@B\\Hh@Hn@XxAJ`@Tz@Np@v@jDLj@LpARtABTJj@l@jD\\jBn@nDPfA|@|FV~@d@hDLdA`@vCZtBXjBHn@\\vCHl@Jh@@L^rCl@nFJ~@JnALtAVtBHl@F`@Hb@VpAf@bBRl@j@rAHV\\v@^z@zAtDr@bBMDsA`@}@X]L_@JEBEDGDIDEBMFMDKBMFMBOFWFMBG@a@LYHMkBC@"}, "start_location": {"lat": 43.852815, "lng": -79.51200999999999}, "transit_details": {"arrival_stop": {"location": {"lat": 43.6456261, "lng": -79.37839509999999}, "name": "Union Station Bus Terminal"}, "arrival_time": {"text": "7:35am", "time_zone": "America/Toronto", "value": 1518957300}, "departure_stop": {"location": {"lat": 43.852815, "lng": -79.51200999999999}, "name": "Keele St Stop # 3964"}, "departure_time": {"text": "6:50am", "time_zone": "America/Toronto", "value": 1518954600}, "headsign": "63 - Union Station", "line": {"agencies": [{"name": "GO Transit", "phone": "1 (888) 438-6646", "url": "http://gotransit.com/"}], "color": "#003767", "name": "King City Train-Bus Service", "short_name": "63", "text_color": "#ffffff", "vehicle": {"icon": "//maps.gstatic.com/mapfiles/transit/iw2/6/bus2.png", "name": "Bus", "type": "BUS"}}, "num_stops": 2}, "travel_mode": "TRANSIT"}, {"distance": {"text": "65 m", "value": 65}, "duration": {"text": "1 min", "value": 60}, "end_location": {"lat": 43.645851, "lng": -79.378929}, "html_instructions": "Walk to Bay St at Front St West", "polyline": {"points": "epkiG~qncNx@hAQF[HAOYN[J?@"}, "start_location": {"lat": 43.6456261, "lng": -79.37839509999999}, "steps": [{"distance": {"text": "26 m", "value": 26}, "duration": {"text": "1 min", "value": 22}, "end_location": {"lat": 43.6455657, "lng": -79.3788618}, "html_instructions": "Head <b>north</b> on <b>Bay St</b>", "polyline": {"points": "epkiG~qncNx@hAQF[H"}, "start_location": {"lat": 43.6456261, "lng": -79.37839509999999}, "travel_mode": "WALKING"}, {"distance": {"text": "6 m", "value": 6}, "duration": {"text": "1 min", "value": 9}, "end_location": {"lat": 43.6455772, "lng": -79.378785}, "html_instructions": "Turn <b>right</b> toward <b>The PATH - Union Station</b>", "maneuver": "turn-right", "polyline": {"points": "yokiGztncNAO"}, "start_location": {"lat": 43.6455657, "lng": -79.3788618}, "travel_mode": "WALKING"}, {"distance": {"text": "33 m", "value": 33}, "duration": {"text": "1 min", "value": 29}, "end_location": {"lat": 43.645851, "lng": -79.378929}, "html_instructions": "Turn <b>left</b> onto <b>The PATH - Union Station</b>", "maneuver": "turn-left", "polyline": {"points": "{okiGjtncNYN[J?@"}, "start_location": {"lat": 43.6455772, "lng": -79.378785}, "travel_mode": "WALKING"}], "travel_mode": "WALKING"}, {"distance": {"text": "1.8 km", "value": 1783}, "duration": {"text": "8 mins", "value": 479}, "end_location": {"lat": 43.660761, "lng": -79.385679}, "html_instructions": "Bus towards North - 6A Bay Towards Dupont", "polyline": {"points": "qqkiGhuncNBV]LuFjBA@UFQFmFbBE@mDjAiA^c@LcBd@wBr@kBj@IF[X?D?DAD?BABAD?D?BABADADABABABADABCB?BABCBABQTqCv@ODsFbBA?WJ}FdBYHoCz@iCv@A?a@LyCz@uAb@k@PA@aBh@mHzBEY"}, "start_location": {"lat": 43.645851, "lng": -79.378929}, "transit_details": {"arrival_stop": {"location": {"lat": 43.660761, "lng": -79.385679}, "name": "Bay St at College St"}, "arrival_time": {"text": "7:47am", "time_zone": "America/Toronto", "value": 1518958074}, "departure_stop": {"location": {"lat": 43.645851, "lng": -79.378929}, "name": "Bay St at Front St West"}, "departure_time": {"text": "7:39am", "time_zone": "America/Toronto", "value": 1518957595}, "headsign": "North - 6A Bay Towards Dupont", "line": {"agencies": [{"name": "TTC", "phone": "1 (416) 393-4636", "url": "http://www.ttc.ca/"}], "color": "#0000f2", "name": "Bay", "short_name": "6", "text_color": "#ffffff", "vehicle": {"icon": "//maps.gstatic.com/mapfiles/transit/iw2/6/bus2.png", "name": "Bus", "type": "BUS"}}, "num_stops": 10}, "travel_mode": "TRANSIT"}, {"distance": {"text": "0.7 km", "value": 711}, "duration": {"text": "9 mins", "value": 558}, "end_location": {"lat": 43.6591603, "lng": -79.394097}, "html_instructions": "Walk to 27 King's College Cir, Toronto, ON M5S, Canada", "polyline": {"points": "wnniGn_pcNOB@B?H?F?BADPpALnA^tCTvAFl@PlAJ|@BNL|@Z~BNlADZHp@BNL`ADVBVNdAJr@LdAD\\Hj@f@xDVlBOF"}, "start_location": {"lat": 43.660761, "lng": -79.385679}, "steps": [{"distance": {"text": "0.7 km", "value": 701}, "duration": {"text": "9 mins", "value": 546}, "end_location": {"lat": 43.6590781, "lng": -79.3940618}, "html_instructions": "Head <b>west</b> on <b>College St</b> toward <b>Bay St</b>", "polyline": {"points": "wnniGn_pcNOB@B?H?F?BADPpALnA^tCTvAFl@PlAJ|@BNL|@Z~BNlADZHp@BNL`ADVBVNdAJr@LdAD\\Hj@f@xDVlB"}, "start_location": {"lat": 43.660761, "lng": -79.385679}, "travel_mode": "WALKING"}, {"distance": {"text": "10 m", "value": 10}, "duration": {"text": "1 min", "value": 12}, "end_location": {"lat": 43.6591603, "lng": -79.394097}, "html_instructions": "Turn <b>right</b> onto <b>King's College Rd</b>", "maneuver": "turn-right", "polyline": {"points": "gdniGzsqcNOF"}, "start_location": {"lat": 43.6590781, "lng": -79.3940618}, "travel_mode": "WALKING"}], "travel_mode": "WALKING"}], "traffic_speed_entry": [], "via_waypoint": []}], "overview_polyline": {"points": "weqjGr`mdNgBJkGx@_KpA_TrCqAB}Fr@aCd@}Cd@kCLeAkFc@mCZ|CEQkBmIkAoGoGsi@kNojAO_DOFMcAfAO`CW`C]jAQ?RJY~Eq@pFs@|XyDbRsCrBYpACdG_A`@UzDq@zHiArASxBS|Cc@FWSuAi@_EgBsI{DiLwBuH]cBGWd@URQFgFAw@QUUNf@zG_Ap@SJPfAr@xChCrHbDhKfC~OBRTCxG}@pHeAfA]nBYx@KzHaAPHtAInAORSnFs@rC]tHaAhWoEzNyBbAOj@@pEo@RSfAUnLeBhHeA|[iF`n@uJjPiCjN{Bl@HfCc@xEw@dKaBxCe@xBNj@t@JjAQhAo@h@{@Co@u@_AgEc@mC{AaGqDiOsGgRyEuJmBeD_EgGeEeFmFiFwHqF}GmDmFkBwFuAaEo@mFe@gOe@iOc@oEe@gG{A_FqBsGoE_FyEcBqB{EuGsEoIuFeN{FuPwGeWgCgMaCePaCcSmA{KuDwXoLgv@qHwd@eEoRyF}QiJsYoEwPoBcLk@oEyAkSKkLTkOvAoV`BiX`Cya@v@oZHqNGsRSwOg@uSY_HmAkRy@{P@{ET{CnAyG|@wBhBsC~CmCfDgBbDuAzLaE|IuCrNuEfh@ePhNyEfDcBlDkCjEaFbDwFxAoDtKm]~AaFjBuDrC_D|DcCrC{@|IqA~a@oFrc@aG~qAiQnRcCfSyAxXgD`GSnMOhG{@~FoBpOeEv[_F|JwBtL{C~HuAhI{@|VeAlH{@bPiCxE]~DGdSB|K_AdSmCtP_B~Zq@rLk@bGqA|EaB|GsD|H}F~GaFbCgAbBa@tCMfCNbD~@rBnApCtClKxOxBnCdBvAzBfA`Dn@zNlBvC|@fBhAlBlBdAbBfBbE`CpIzBnGlIdM|AdDr@hC|@hGHpDQfFaBvRK`FFfBb@rE~@dE~AtD|DvFhU~XjDjDjCpB`EvB~DrAbEt@jDRxGLtC^fKtD~CbAzBZfCBlH_@fKu@xJmBvF{A`FgCnFkEfIgHxBoAjDiAjm@yL~OaDxCoAfBkA`DcDpCiDpH{I|DmD~BmApAYxBGdBVrAh@|AlAtArB~@bCpA`Ej@fDN|EWxJGnEJxCp@pEhBzHzD|UlCnPdB~LxCpVz@hIpAzFfBpEzBpFr@bBMDqCz@}@X]TqBp@qA\\QiBx@hAQF[HAOu@ZBXsGxBwGtB}FlB_GfBuBr@[XATCROd@INSXqCv@}GtBgLjDmPbFmHzBEYOB@L?J|@|Hz@pG~AzLjBrNVlBOF"}, "summary": "", "warnings": ["Walking directions are in beta.    Use caution \u2013 This route may be missing sidewalks or pedestrian paths."], "waypoint_order": []}]